{	"shopList" : [
{ "name" : "Mammut Képviselet", "address" : "1026 Budapest II., Lövőház u. 2-6.", "lat" : "47.5083529", "lon" : "19.0266807"},
{ "name" : "Astoria - Telenor üzlet", "address" : "1075 Budapest VII., Károly krt. 3/a.", "lat" : "47.4951862", "lon" : "19.0594802"},
{ "name" : "Telenor Köki Terminál", "address" : "1191 Budapest XIX., Vak Bottyán utca 75/", "lat" : "47.4618375", "lon" : "19.1489296"},
{ "name" : "Telenor Pólus Center", "address" : "1152 Budapest XV., Szentmihályi út 131", "lat" : "47.5498316", "lon" : "19.1383946"},
{ "name" : "Debreceni Képviselet", "address" : "4025 Debrecen, Unió Áruház  Piac u. 1-3.", "lat" : "47.5299739", "lon" : "21.6393571"},
{ "name" : "Győr Képviselet", "address" : "9021 Győr, Baross Gábor utca 11", "lat" : "47.6870991", "lon" : "17.6320051"},
{ "name" : "Pécs Képviselet", "address" : "7622 Pécs, Bajcsy-Zsilinszky En", "lat" : "46.0712989", "lon" : "18.2331874"},
{ "name" : "Szegedi Bemutatóterem", "address" : "6724 Szeged, Londoni krt. 3.", "lat" : "46.2541386", "lon" : "46.2541386"},
{ "name" : "Telenor Törökbálint", "address" : "2045 Törökbálint, Pannon út 1.", "lat" : "47.435794", "lon" : "18.915538"},
{ "name" : "Abony", "address" : "2740 Abony, Szilágyi E u. 2/9.", "lat" : "47.1880493", "lon" : "20.0027581"},
{ "name" : "Ajka Szabadság tér", "address" : "8400 Ajka, Szabadság tér 20.", "lat" : "47.1059303", "lon" : "17.562737"},
{ "name" : "Tesco Albertirsa", "address" : "2730 Albertirsa, Vasút utca 4/13 /Tes", "lat" : "47.2458573", "lon" : "19.6131055"},
{ "name" : "Aszód", "address" : "2170 Aszód, Kossuth Lajos u. 4.", "lat" : "47.6518532", "lon" : "19.4757824"},
{ "name" : "Baja Déri sétány", "address" : "6500 Baja, Déri F. stny 2/A", "lat" : "46.179051", "lon" : "18.953146"},
{ "name" : "Baja Szegedi út", "address" : "6500 Baja, Szegedi út 1.", "lat" : "46.1835641", "lon" : "18.9541836"},
{ "name" : "Baja Tesco", "address" : "6500 Baja, Gránátos utca 11", "lat" : "46.190143", "lon" : "18.937147"},
{ "name" : "Balassagyarmat Rákóczi út", "address" : "2660 Balassagyarmat, Rákóczi út 42.", "lat" : "48.0786602", "lon" : "19.2936641"},
{ "name" : "Balatonboglár", "address" : "8630 Balatonboglár, Dózsa György u. 13.", "lat" : "46.7779697", "lon" : "17.6534633"},
{ "name" : "Balatonfüred", "address" : "8230 Balatonfüred, Kossuth u. 12.", "lat" : "46.9611082", "lon" : "17.8710033"},
{ "name" : "Balmazújváros", "address" : "4060 Balmazújváros, Veres Péter u. 1.", "lat" : "47.613219", "lon" : "21.343203"},
{ "name" : "Barcs Séta tér", "address" : "7570 Barcs, Séta tér 1/5", "lat" : "45.9598766", "lon" : "17.4649572"},
{ "name" : "Békéscsaba Andrássy út", "address" : "5600 Békéscsaba, Andrássy út 32.", "lat" : "46.6779307", "lon" : "21.0937699"},
{ "name" : "Békéscsaba Csaba Center", "address" : "5600 Békéscsaba, Andrássy út 37-43.", "lat" : "46.6760175", "lon" : "21.0891274"},
{ "name" : "Békéscsaba Tesco", "address" : "5600 Békéscsaba, Szarvasi út 68.", "lat" : "46.6822138", "lon" : "21.074459"},
{ "name" : "Berettyóújfalu", "address" : "4100 Berettyóújfalu, Kádár Vitéz u. 4.", "lat" : "47.2202994", "lon" : "21.5369842"},
{ "name" : "Bicske", "address" : "2060 Bicske, Csapdi u. 4.", "lat" : "47.5012848", "lon" : "18.6289298"},
{ "name" : "Bonyhád Rákóczi utca", "address" : "7150 Bonyhád, Rákóczi Ferenc u. 3-", "lat" : "46.3005881", "lon" : "18.5306025"},
{ "name" : "Budakalász Auchan", "address" : "2011 Budakalász, Omszk park 1.", "lat" : "47.6213943", "lon" : "19.0504521"},
{ "name" : "Budaörs Auchan", "address" : "2040 Budaörs, Sport u. 2-4.", "lat" : "47.4565402", "lon" : "18.947921"},
{ "name" : "Budaörs Tesco", "address" : "2040 Budaörs, Kinizsi u. 5.", "lat" : "47.4496068", "lon" : "18.9692356"},
{ "name" : "Budapest Budagyöngye", "address" : "1026 Budapest II., Pázsit utca 2. fsz.1", "lat" : "47.5162964", "lon" : "18.9995218"},
{ "name" : "Budapest Mammut", "address" : "1021 Budapest II., Lövőház u. 1-3. Mamm", "lat" : "47.5083599", "lon" : "19.026724"},
{ "name" : "Budapest Eurocenter", "address" : "1032 Budapest III., Bécsi út 154.", "lat" : "47.5455862", "lon" : "19.0293741"},
{ "name" : "Budapest Mátyás király út", "address" : "1039 Budapest III., Mátyás király út 20.", "lat" : "47.5857522", "lon" : "19.0483609"},
{ "name" : "Budapest Óbuda Auchan", "address" : "1033 Budapest III., Szentendrei út 115.", "lat" : "47.559871", "lon" : "19.047496"},
{ "name" : "Budapest Centrum Újpest", "address" : "1042 Budapest IV., István u. 10.", "lat" : "47.5626531", "lon" : "19.0905607"},
{ "name" : "Budapest Lurdy-ház", "address" : "1097 Budapest IX., Könyves Kálmán Krt 1", "lat" : "47.4703", "lon" : "19.0843"},
{ "name" : "Budapest WestEnd City Alulj. s", "address" : "1062 Budapest VI., Váci út 1-3. Aluljár", "lat" : "47.5140921", "lon" : "19.0584256"},
{ "name" : "Budapest WestEnd City Emeleti", "address" : "1065 Budapest VI., Váci út 1-3. Westend", "lat" : "47.5130477", "lon" : "19.0576224"},
{ "name" : "Budapest Aréna Plaza", "address" : "1087 Budapest VIII., Kerepesi út 9.", "lat" : "47.4995112", "lon" : "19.0875891"},
{ "name" : "Budapest Corvin Plaza", "address" : "1082 Budapest VIII., Futó u. 37-45.", "lat" : "47.4861045", "lon" : "19.0746153"},
{ "name" : "Budapest Europeum", "address" : "1088 Budapest VIII., József körút 5.", "lat" : "47.4959707", "lon" : "19.0707314"},
{ "name" : "Budapest Árkád", "address" : "1106 Budapest X., Kerepesi út 61. Árká", "lat" : "47.5061918", "lon" : "19.1387615"},
{ "name" : "Budapest Allee", "address" : "1117 Budapest XI., Október 23. utca", "lat" : "47.4738876", "lon" : "19.0493364"},
{ "name" : "Budapest Savoya Park", "address" : "1117 Budapest XI., Hunyadi út 19.", "lat" : "47.4414421", "lon" : "19.045271"},
{ "name" : "Budapest Mom Park", "address" : "1123 Budapest XII., Alkotás u. 53.", "lat" : "47.4911112", "lon" : "19.0241727"},
{ "name" : "Budapest Duna Plaza", "address" : "1138 Budapest XIII., Váci út 178. II.em.", "lat" : "47.5511856", "lon" : "19.0739667"},
{ "name" : "Budapest Tesco Váci út", "address" : "1138 Budapest XIII., Gács utca 3.", "lat" : "47.5571015", "lon" : "19.07715"},
{ "name" : "Budapest Sugár", "address" : "1148 Budapest XIV., Örs vezér tér 24.", "lat" : "47.5044025", "lon" : "19.1360167"},
{ "name" : "Budapest Tesco Fogarasi út", "address" : "1149 Budapest XIV., Pillangó u. 15.", "lat" : "47.5043826", "lon" : "19.116515"},
{ "name" : "Budapest Europark", "address" : "1191 Budapest XIX., Üllői út 201.", "lat" : "47.4635924", "lon" : "19.1304777"},
{ "name" : "Budapest Pólus Center", "address" : "1152 Budapest XV., Szentmihályi út 131.", "lat" : "47.5498319", "lon" : "19.1383951"},
{ "name" : "Budapest Szőcs Áron utca", "address" : "1152 Budapest XV., Szőcs Áron u. 12-22", "lat" : "47.5618747", "lon" : "19.1170876"},
{ "name" : "Budapest Cinkotai út", "address" : "1173 Budapest XVII., Cinkotai út. 6", "lat" : "47.4850061", "lon" : "19.2433114"},
{ "name" : "Budapest Tesco Pesti út", "address" : "1173 Budapest XVII., Pesti út 5-7.", "lat" : "47.4819802", "lon" : "19.2389944"},
{ "name" : "Budapest Tesco Megapark", "address" : "1204 Budapest XX., Mártírok útja 281.", "lat" : "47.4293862", "lon" : "19.1412535"},
{ "name" : "Budapest Csepel Plaza", "address" : "1211 Budapest XXI., II. Rákóczi F. út 154-170.", "lat" : "47.4249985", "lon" : "19.0672318"},
{ "name" : "Budapest Campona", "address" : "1222 Budapest XXII., Nagytétényi út 37-43", "lat" : "47.40718", "lon" : "19.0168104"},
{ "name" : "Budapest Auchan Soroksár", "address" : "1239 Budapest XXIII., Bevásárló út  2.", "lat" : "47.4123198", "lon" : "19.1614807"},
{ "name" : "Cegléd Kossuth tér", "address" : "2700 Cegléd, Kossuth tér 6.", "lat" : "47.1691785", "lon" : "19.7949459"},
{ "name" : "Cegléd Tesco", "address" : "2700 Cegléd, Malomtó szél 30.", "lat" : "47.1798188", "lon" : "19.8046618"},
{ "name" : "Celldömölk", "address" : "9500 Celldömölk, Kossuth u. 18.", "lat" : "47.2582735", "lon" : "17.1521791"},
{ "name" : "Csömör Auchan", "address" : "2141 Csömör, Határ út 6.", "lat" : "47.5506576", "lon" : "19.2523712"},
{ "name" : "Csorna", "address" : "9300 Csorna, Szent István tér 28.", "lat" : "47.6123054", "lon" : "17.248536"},
{ "name" : "Dabas", "address" : "2370 Dabas, Bartók B. u. 32", "lat" : "47.1850873", "lon" : "19.3170813"},
{ "name" : "Debrecen Fórum", "address" : "4024 Debrecen, Csapó u. 30.", "lat" : "47.5318699", "lon" : "21.6283166"},
{ "name" : "Debrecen Plaza", "address" : "4026 Debrecen, Péterfia u. 18.", "lat" : "47.5360575", "lon" : "21.6258188"},
{ "name" : "Debrecen Tesco", "address" : "4031 Debrecen, Kishegyesi út 1-11.", "lat" : "47.5297151", "lon" : "21.6104556"},
{ "name" : "Debrecen Tesco Airport", "address" : "4030 Debrecen, Mikepércsi út 73/A", "lat" : "47.5033129399", "lon" : "21.6302388003"},
{ "name" : "Dombóvár Hunyadi tér", "address" : "7200 Dombóvár, Hunyadi tér 27.", "lat" : "46.3743705", "lon" : "18.1292941"},
{ "name" : "Dombóvár Köztársaság utca", "address" : "7200 Dombóvár, Köztársaság u. 7.", "lat" : "46.3861398", "lon" : "18.1389601"},
{ "name" : "Dorog", "address" : "2510 Dorog, Bécsi út 60.", "lat" : "47.7193344", "lon" : "18.7298163"},
{ "name" : "Dunaföldvár", "address" : "7020 Dunaföldvár, Kossuth Lajos u. 3.", "lat" : "46.8071", "lon" : "18.9248858"},
{ "name" : "Dunaharaszti", "address" : "2330 Dunaharaszti, Némedi út 69.", "lat" : "47.3344421", "lon" : "19.0616376"},
{ "name" : "Dunakeszi Auchan", "address" : "2120 Dunakeszi, Nádas út 6.", "lat" : "47.6361448", "lon" : "19.1419765"},
{ "name" : "Dunakeszi Tesco", "address" : "2120 Dunakeszi, Fóti út 120.", "lat" : "47.6081584", "lon" : "19.1847347"},
{ "name" : "Dunaújváros Dózsa György út", "address" : "2400 Dunaújváros, Dózsa György u. 4/C.", "lat" : "46.9646006", "lon" : "18.9389948"},
{ "name" : "Dunaújváros Tesco", "address" : "2400 Dunaújváros, Aranyvölgyi u. 6.", "lat" : "46.972651", "lon" : "18.928684"},
{ "name" : "Eger", "address" : "3300 Eger, Katona tér 1-3.", "lat" : "47.9032483", "lon" : "20.3745125"},
{ "name" : "Eger Agria Park", "address" : "3300 Eger, Törvényház u. 4.", "lat" : "47.8990732", "lon" : "20.3685509"},
{ "name" : "Eger Tesco", "address" : "3300 Eger, Rákóczi út 100.", "lat" : "47.9156299", "lon" : "20.3698764"},
{ "name" : "Encs", "address" : "3860 Encs, Petőfi út 71-73.", "lat" : "48.3334354", "lon" : "21.1139"},
{ "name" : "Érd Stop Shop", "address" : "2030 Érd, Budai út 13.", "lat" : "47.3776596", "lon" : "18.9195882"},
{ "name" : "Érd Tesco", "address" : "2030 Érd, Budafoki út 2-4.", "lat" : "47.378998", "lon" : "18.92439"},
{ "name" : "Esztergom Kossuth Lajos utca", "address" : "2500 Esztergom, Kossuth L. u. 6.", "lat" : "47.7924785", "lon" : "18.7434966"},
{ "name" : "Esztergom Tesco", "address" : "2500 Esztergom, Mátyás Király u. 30.", "lat" : "47.8179724", "lon" : "18.8730097"},
{ "name" : "Fehérgyarmat", "address" : "4900 Fehérgyarmat, Petőfi Sándor u. 2.", "lat" : "47.988715", "lon" : "22.514269"},
{ "name" : "Fót Auchan", "address" : "2151 Fót, Fehérkő út 1.", "lat" : "47.5832294", "lon" : "19.1627311"},
{ "name" : "Gödöllő Dózsa Gy. utca", "address" : "2100 Gödöllő, Dózsa György u. 2.", "lat" : "47.5996717", "lon" : "19.3460793"},
{ "name" : "Gödöllő Tesco", "address" : "2100 Gödöllő, Thegze L. u. 2.", "lat" : "47.6030602", "lon" : "19.3509398"},
{ "name" : "Gyál", "address" : "2360 Gyál, Kőrösi út 90.", "lat" : "47.3837102", "lon" : "19.2123353"},
{ "name" : "Gyömrő", "address" : "2230 Gyömrő, Táncsics M. u. 88", "lat" : "47.4241205", "lon" : "19.391235"},
{ "name" : "Gyöngyös Mikszáth Kálmán út", "address" : "3200 Gyöngyös, Mikszáth Kálmán u. 1", "lat" : "47.7828014", "lon" : "19.9263581"},
{ "name" : "Gyöngyös Tesco", "address" : "3200 Gyöngyös, Vásár u. 2.", "lat" : "47.775028", "lon" : "19.9280689"},
{ "name" : "Győr Árkád", "address" : "9021 Győr, Budai út 1.", "lat" : "47.6910875", "lon" : "17.6501429"},
{ "name" : "Győr Plaza", "address" : "9023 Győr, Vasvári Pál út 7.", "lat" : "47.6686908", "lon" : "17.644988"},
{ "name" : "Gyula", "address" : "5700 Gyula, Városház u. 1.", "lat" : "46.6451869", "lon" : "21.2736531"},
{ "name" : "Hajdúböszörmény", "address" : "4220 Hajdúböszörmény, Korpona u. 11/B.", "lat" : "47.6730078", "lon" : "21.5135799"},
{ "name" : "Hajdúszoboszló", "address" : "4200 Hajdúszoboszló, Szilfákalja u. 4.", "lat" : "47.4455198808", "lon" : "21.3921650891"},
{ "name" : "Hatvan Bibó István út", "address" : "3000 Hatvan, Bibó István út 1.", "lat" : "47.668122", "lon" : "19.669901"},
{ "name" : "Heves", "address" : "3360 Heves, Hősök tere 7.", "lat" : "47.5935806", "lon" : "20.2802557"},
{ "name" : "Hódmezővásárhely Andrássy utca", "address" : "6800 Hódmezővásárhely, Andrássy utca 28/b.", "lat" : "46.4147362", "lon" : "20.3226474"},
{ "name" : "Hódmezővásárhely Tesco", "address" : "6800 Hódmezővásárhely, Hódtó utca 17-19.", "lat" : "46.4110463", "lon" : "20.3294218"},
{ "name" : "Jászberény  Börtönudvar", "address" : "5100 Jászberény, Lehel vezér tér 15.", "lat" : "47.4988974", "lon" : "19.9103489"},
{ "name" : "Jászberény Bérkocsis utca", "address" : "5100 Jászberény, Bérkocsis u. 4.", "lat" : "47.5002658", "lon" : "19.9159212"},
{ "name" : "Jászberény Tesco", "address" : "5100 Jászberény, Nagykátai út 2/a", "lat" : "47.489625", "lon" : "19.888785"},
{ "name" : "Kalocsa", "address" : "6300 Kalocsa, Szent István király utca 61.", "lat" : "46.5249632", "lon" : "18.9797523"},
{ "name" : "Kaposvár Fő utca", "address" : "7400 Kaposvár, Fő u. 16.", "lat" : "46.3565487", "lon" : "17.7928111"},
{ "name" : "Kaposvár Plaza", "address" : "7400 Kaposvár, Berzsenyi D. u. 1-3.", "lat" : "46.3563849", "lon" : "17.7851577"},
{ "name" : "Kaposvár Tesco", "address" : "7400 Kaposvár, Berzsenyi u. 13.", "lat" : "46.3582219", "lon" : "17.7842656"},
{ "name" : "Kapuvár", "address" : "9330 Kapuvár, Fő tér 21.", "lat" : "47.5935958", "lon" : "17.0244736"},
{ "name" : "Karcag", "address" : "5300 Karcag, Horváth Ferenc u. 1.", "lat" : "47.3187039", "lon" : "20.9220476"},
{ "name" : "Kazincbarcika", "address" : "3700 Kazincbarcika, Egressy Béni út 1/c.", "lat" : "48.246496", "lon" : "20.6166868"},
{ "name" : "", "address" : "", "lat" : "46.8884671", "lon" : "19.6327544"},
{ "name" : "Kecskemét Malom Park", "address" : "6000 Kecskemét, Korona u. 2.", "lat" : "46.9069906", "lon" : "19.688438"},
{ "name" : "Kecskemét Petőfi Sándor út", "address" : "6000 Kecskemét, Petőfi Sándor u. 8.", "lat" : "46.9047884", "lon" : "19.6867342"},
{ "name" : "Kecskemét Talfája Tesco", "address" : "6000 Kecskemét, Talfája 1.", "lat" : "46.93293", "lon" : "19.6493433"},
{ "name" : "Keszthely", "address" : "8360 Keszthely, Fejér Gy. utca 3.", "lat" : "46.7695893", "lon" : "17.2481444"},
{ "name" : "Kisbér", "address" : "2870 Kisbér, Kossuth L. u. 1.", "lat" : "47.503695", "lon" : "18.022453"},
{ "name" : "Kiskőrös", "address" : "6200 Kiskőrös, Petőfi tér 3.", "lat" : "46.6199621", "lon" : "19.2844038"},
{ "name" : "Kiskunfélegyháza", "address" : "6100 Kiskunfélegyháza, Béke tér 2-4.", "lat" : "46.7027541", "lon" : "19.8519336"},
{ "name" : "Kiskunhalas", "address" : "6400 Kiskunhalas, Szilády Áron u. 5.-7", "lat" : "46.4321107", "lon" : "19.4778035"},
{ "name" : "Kiskunlacháza", "address" : "2340 Kiskunlacháza, Dózsa György u. 131.", "lat" : "47.189662", "lon" : "19.0064126"},
{ "name" : "Kiskunmajsa", "address" : "6120 Kiskunmajsa, Fő u. 85.", "lat" : "46.4902753", "lon" : "19.7391752"},
{ "name" : "Kisújszállás", "address" : "5310 Kisújszállás, Szabadság u. 8.", "lat" : "47.2164393", "lon" : "20.7576007"},
{ "name" : "Kisvárda", "address" : "4600 Kisvárda, Szent László utca 22", "lat" : "48.2246475", "lon" : "22.0787356"},
{ "name" : "Komárom", "address" : "2900 Komárom, Igmándi út 26.", "lat" : "47.7424193", "lon" : "18.1189194"},
{ "name" : "Komló", "address" : "7300 Komló, Kossuth Lajos u. 79/", "lat" : "46.1898657", "lon" : "18.2678101"},
{ "name" : "Körmend", "address" : "9900 Körmend, Rákóczi út 18.", "lat" : "47.0204761", "lon" : "16.6172361"},
{ "name" : "Kőszeg", "address" : "9730 Kőszeg, Várkör utca 16.", "lat" : "47.3892552", "lon" : "16.5428558"},
{ "name" : "Kunszentmiklós", "address" : "6090 Kunszentmiklós, Szent Erzsébet tér 12.", "lat" : "46.9942202", "lon" : "19.161399"},
{ "name" : "Lenti", "address" : "8960 Lenti, Széchenyi tér 9.", "lat" : "46.6244265", "lon" : "16.5459573"},
{ "name" : "Maglód Auchan", "address" : "2234 Maglód, Esterházy J. u. 1.", "lat" : "47.4448952", "lon" : "19.3665359"},
{ "name" : "Makó Szegedi út", "address" : "6900 Makó, Szegedi út 2", "lat" : "46.213688", "lon" : "20.4729426"},
{ "name" : "Marcali", "address" : "8700 Marcali, Noszlopy u. 177.", "lat" : "46.5985566", "lon" : "17.4045592"},
{ "name" : "Mátészalka", "address" : "4700 Mátészalka, Hősök tere 3.", "lat" : "47.9530361", "lon" : "22.3169222"},
{ "name" : "Mezőkövesd", "address" : "3400 Mezőkövesd, Szent László tér 17.", "lat" : "47.8106908", "lon" : "20.5737571"},
{ "name" : "Mezőtúr", "address" : "5400 Mezőtúr, Bajcsy-Zsilinszky u.", "lat" : "47.0050276", "lon" : "20.6200732"},
{ "name" : "Miskolc Auchan József Attila u", "address" : "3527 Miskolc, József Attila u. 87.", "lat" : "48.1060242", "lon" : "20.8307721"},
{ "name" : "Miskolc Auchan Pesti út", "address" : "3516 Miskolc, Pesti út 9.", "lat" : "48.0594504", "lon" : "20.7959406"},
{ "name" : "Miskolc Plaza", "address" : "3525 Miskolc, Szentpáli u. 2-6. /1", "lat" : "48.1048362", "lon" : "20.7885587"},
{ "name" : "Miskolc Szentpáli utca", "address" : "3525 Miskolc, Szentpáli u. 1.", "lat" : "48.1030043", "lon" : "20.7891583"},
{ "name" : "Miskolc Szinvapark", "address" : "3527 Miskolc, Bajcsy-Zsilinszky u.", "lat" : "48.103032", "lon" : "20.7926096"},
{ "name" : "Miskolc Tesco", "address" : "3530 Miskolc, Szentpéteri kapu 103", "lat" : "48.1212008", "lon" : "20.7874069"},
{ "name" : "Mohács", "address" : "7700 Mohács, Vörösmarty u. 2.", "lat" : "45.9909742", "lon" : "18.6887876"},
{ "name" : "Monor", "address" : "2200 Monor, Petőfi u. 12.", "lat" : "47.3499884", "lon" : "19.4440046"},
{ "name" : "Mór", "address" : "8060 Mór, Vértes úti üzletsor", "lat" : "47.373568", "lon" : "18.204788"},
{ "name" : "Mosonmagyaróvár Tesco", "address" : "9200 Mosonmagyaróvár, Királyhidai u. 42.", "lat" : "47.8750587", "lon" : "17.2640828"},
{ "name" : "Nagyatád", "address" : "7500 Nagyatád, Kossuth L. u. 3.", "lat" : "46.2271571", "lon" : "17.363031"},
{ "name" : "Nagykanizsa Fő utca", "address" : "8800 Nagykanizsa, Fő u. 4.", "lat" : "46.4552189", "lon" : "16.988302"},
{ "name" : "Nagykanizsa Tesco", "address" : "8800 Nagykanizsa, Boszorkány u. 2.", "lat" : "46.455458", "lon" : "17.004236"},
{ "name" : "Nagykáta", "address" : "2760 Nagykáta, Kossuth L.út 163/17", "lat" : "47.4173622", "lon" : "19.7466814"},
{ "name" : "Nagykőrös", "address" : "2750 Nagykőrös, Széchenyi tér 3.", "lat" : "47.0337903", "lon" : "19.7802353"},
{ "name" : "Nyírbátor", "address" : "4300 Nyírbátor, Zrínyi u.4.fsz.5.", "lat" : "47.8354052", "lon" : "22.1311804"},
{ "name" : "Nyíregyháza Nagy Imre tér", "address" : "4400 Nyíregyháza, Nagy Imre tér 1", "lat" : "47.9532583", "lon" : "21.7264647"},
{ "name" : "Nyíregyháza Plaza", "address" : "4400 Nyíregyháza, Szegfű út 75.", "lat" : "47.955785", "lon" : "21.7310617"},
{ "name" : "Nyíregyháza Rákóczi utca", "address" : "4400 Nyíregyháza, Rákóczi u. 18-20.", "lat" : "47.95884", "lon" : "21.71198"},
{ "name" : "Nyíregyháza Tesco", "address" : "4400 Nyíregyháza, Kósbor u. 1.", "lat" : "47.9721124", "lon" : "21.7309477"},
{ "name" : "Nyíregyháza Zrínyi utca", "address" : "4400 Nyíregyháza, Zrínyi u. 4-6.", "lat" : "47.9544632", "lon" : "21.7159531"},
{ "name" : "Orosháza Győri Vilmos tér", "address" : "5900 Orosháza, Győri Vilmos tér 2", "lat" : "46.5589613", "lon" : "20.670341"},
{ "name" : "Oroszlány", "address" : "2840 Oroszlány, Fürst Sándor utca 50", "lat" : "47.4868706", "lon" : "18.3147504"},
{ "name" : "Ózd", "address" : "3600 Ózd, Vasvár út 23/d.", "lat" : "48.2192628", "lon" : "20.2847341"},
{ "name" : "Paks Dózsa György utca", "address" : "7030 Paks, Dózsa György u. 13.", "lat" : "46.625774", "lon" : "18.8638311"},
{ "name" : "Pápa Interspar", "address" : "8500 Pápa, Celli út 25.", "lat" : "47.3285436", "lon" : "17.457155"},
{ "name" : "Pápa Kossuth Lajos utca", "address" : "8500 Pápa, Kossuth u. 22.", "lat" : "47.3302234", "lon" : "17.4661294"},
{ "name" : "Pásztó", "address" : "3060 Pásztó, Fő út 69.", "lat" : "47.9199295", "lon" : "19.698402"},
{ "name" : "Pécel", "address" : "2119 Pécel, Rákos u. 6.", "lat" : "47.4908366", "lon" : "19.3406839"},
{ "name" : "Tesco", "address" : "", "lat" : "46.0414712", "lon" : "18.2379508"},
{ "name" : "Pécs Petőfi utca", "address" : "7624 Pécs, Petőfi u. 6.", "lat" : "46.0761825", "lon" : "18.2147516"},
{ "name" : "Pécs Plaza", "address" : "7631 Pécs, Megyeri u. 76.", "lat" : "46.0628528", "lon" : "18.2133885"},
{ "name" : "Pécs Tesco", "address" : "7634 Pécs, Makay István út 5.", "lat" : "46.0650731", "lon" : "18.1723458"},
{ "name" : "Püspökladány", "address" : "4150 Püspökladány, Rákóczi u 5.", "lat" : "47.319078", "lon" : "21.1187283"},
{ "name" : "Salgótarján Erzsébet tér", "address" : "3100 Salgótarján, Erzsébet tér 6.", "lat" : "48.1040569", "lon" : "19.8057484"},
{ "name" : "Salgótarján Tesco", "address" : "3100 Salgótarján, Rákóczi út 143.", "lat" : "48.0851522", "lon" : "19.7934042"},
{ "name" : "Sárbogárd", "address" : "7000 Sárbogárd, Ady Endre út 19", "lat" : "46.8861181", "lon" : "18.6225772"},
{ "name" : "Sárospatak", "address" : "3950 Sárospatak, Erdélyi u. 1.", "lat" : "48.3190217", "lon" : "21.5661597"},
{ "name" : "Sárvár", "address" : "9600 Sárvár, Hunyadi u. 1. fszt/3", "lat" : "47.2529118", "lon" : "16.9305184"},
{ "name" : "Sátoraljaújhely", "address" : "3980 Sátoraljaújhely, Rákóczi út 7.", "lat" : "48.3981761", "lon" : "21.6562703"},
{ "name" : "Siklós", "address" : "7800 Siklós, Felszabadulás u. 78.", "lat" : "45.8563181", "lon" : "18.2944539"},
{ "name" : "Siófok", "address" : "8600 Siófok, Fő u. 176.", "lat" : "46.9062442", "lon" : "18.0534251"},
{ "name" : "Siófok Tesco", "address" : "8600 Siófok, Vak Bottyán utca 27", "lat" : "46.898523", "lon" : "18.052374"},
{ "name" : "Solymár Auchan", "address" : "2083 Solymár, Szent Flórián 2-4.", "lat" : "47.6179719", "lon" : "18.9137669"},
{ "name" : "Sopron Tesco", "address" : "9400 Sopron, Ipar krt. 30.", "lat" : "47.6682282", "lon" : "16.6090166"},
{ "name" : "Sopron Várkerület", "address" : "9400 Sopron, Várkerület 23.", "lat" : "47.688435", "lon" : "16.5935768"},
{ "name" : "Sülysáp Tesco", "address" : "2241 Sülysáp, Szent István tér 6.", "lat" : "47.4501688", "lon" : "19.5341974"},
{ "name" : "Szarvas Szabadság út", "address" : "5540 Szarvas, Szabadság út 45.", "lat" : "46.8604445", "lon" : "20.5558553"},
{ "name" : "Százhalombatta", "address" : "2440 Százhalombatta, Damjanich u. 24.", "lat" : "47.3183166", "lon" : "18.9075429"},
{ "name" : "Szeged Napfény park", "address" : "6729 Szeged, Szabadkai utca 7.", "lat" : "46.2404308", "lon" : "20.1200715"},
{ "name" : "Szeged Tesco", "address" : "6724 Szeged, Rókusi krt. 42-64.", "lat" : "46.2703711", "lon" : "20.1388397"},
{ "name" : "Szeged Tisza Lajos krt.", "address" : "6721 Szeged, Tisza Lajos krt. 36-", "lat" : "46.2549759", "lon" : "20.147057"},
{ "name" : "Szeghalom", "address" : "5520 Szeghalom, Tildy Zoltán u. 33.", "lat" : "47.0174902", "lon" : "21.1756487"},
{ "name" : "Székesfehérvár Alba Plaza", "address" : "8000 Székesfehérvár, Alba Plaza  Palotai", "lat" : "47.1894", "lon" : "18.4078"},
{ "name" : "Székesfehérvár Auchan", "address" : "8000 Székesfehérvár, Holland fasor 1.", "lat" : "47.1497238", "lon" : "18.4297287"},
{ "name" : "Székesfehérvár Tesco", "address" : "8000 Székesfehérvár, Aszalvölgyi út 1.", "lat" : "47.2152", "lon" : "18.4319"},
{ "name" : "Székesfehérvár Várkörút", "address" : "8000 Székesfehérvár, Várkörút 56.", "lat" : "47.192275", "lon" : "18.411712"},
{ "name" : "Szekszárd Széchenyi út", "address" : "7100 Szekszárd, Széchenyi u. 48-52.", "lat" : "46.3476976", "lon" : "18.7019088"},
{ "name" : "Szekszárd Tesco", "address" : "7100 Szekszárd, Tartsay V. u. 40.", "lat" : "46.344391", "lon" : "18.712629"},
{ "name" : "Szentendre Kossuth L. utca", "address" : "2000 Szentendre, Kossuth L. u. 13.", "lat" : "47.6636008", "lon" : "19.0762502"},
{ "name" : "Szentendre Vasúti villasor", "address" : "2000 Szentendre, Vasúti  villasor 5.", "lat" : "47.661947", "lon" : "19.075448"},
{ "name" : "Szentes", "address" : "6600 Szentes, Kossuth Lajos u. 19/", "lat" : "46.6515005", "lon" : "20.2627664"},
{ "name" : "Szerencs", "address" : "3900 Szerencs, Rákóczi u. 110.", "lat" : "48.1627587", "lon" : "21.1972064"},
{ "name" : "Szigetszentmiklós Auchan", "address" : "2310 Szigetszentmiklós, Háros u. 120", "lat" : "47.3818", "lon" : "19.0268"},
{ "name" : "Szigetszentmiklós Tököli út", "address" : "2310 Szigetszentmiklós, Tököli út 19/b fsz.1", "lat" : "47.3431029", "lon" : "19.0379134"},
{ "name" : "Szigetvár", "address" : "7900 Szigetvár, József Attila u. 23.", "lat" : "46.047243", "lon" : "17.799345"},
{ "name" : "Szolnok Baross út", "address" : "5000 Szolnok, Baross út 2.", "lat" : "47.1752292", "lon" : "20.1939107"},
{ "name" : "Szolnok Gólya körforgalom", "address" : "5000 Szolnok, Baross u. 46.", "lat" : "47.1766538", "lon" : "20.1864239"},
{ "name" : "Szolnok Pelikán Bevásárlóközpo", "address" : "5000 Szolnok, Ady Endre út 15.", "lat" : "47.177499", "lon" : "20.1932164"},
{ "name" : "Szombathely Fő tér", "address" : "9700 Szombathely, Fő tér 15.", "lat" : "47.2314097", "lon" : "16.6212159"},
{ "name" : "Szombathely Király utca", "address" : "9700 Szombathely, Király utca 1/A.", "lat" : "47.2317321", "lon" : "16.6240659"},
{ "name" : "Szombathely Tesco", "address" : "9700 Szombathely, Zanati út 70.", "lat" : "47.239179", "lon" : "16.6459177"},
{ "name" : "Tamási", "address" : "7090 Tamási, Szabadság u. 53.", "lat" : "46.6372668", "lon" : "18.2807967"},
{ "name" : "Tapolca Deák Ferenc utca", "address" : "8300 Tapolca, Deák Ferenc u. 14.", "lat" : "46.8823362", "lon" : "17.4372189"},
{ "name" : "Tata", "address" : "2890 Tata, Ady Endre u. 3-5.", "lat" : "47.6510374", "lon" : "18.3252251"},
{ "name" : "Tatabánya Fő tér", "address" : "2800 Tatabánya, Fő tér 30/A.", "lat" : "47.5857169", "lon" : "18.398237"},
{ "name" : "Tatabánya Tesco", "address" : "2800 Tatabánya, Bláthy Ottó u. 1", "lat" : "47.5697307", "lon" : "18.4115641"},
{ "name" : "Tatabánya Vértes Center", "address" : "2800 Tatabánya, Győri út 7-9.", "lat" : "47.5885523", "lon" : "18.3928758"},
{ "name" : "Tiszafüred", "address" : "5350 Tiszafüred, Piactéri Üzletház", "lat" : "47.6184212", "lon" : "20.7505831"},
{ "name" : "Tiszaújváros", "address" : "3580 Tiszaújváros, Rózsa u. 36.", "lat" : "47.9326831", "lon" : "21.0386017"},
{ "name" : "Tiszavasvári", "address" : "4440 Tiszavasvári, Kossuth Lajos utca 2", "lat" : "47.9551786", "lon" : "21.3604134"},
{ "name" : "Törökszentmiklós", "address" : "5200 Törökszentmiklós, Kossuth L. u.127", "lat" : "47.178691", "lon" : "20.4088131"},
{ "name" : "Újfehértó", "address" : "4244 Újfehértó, Fő tér 1.", "lat" : "47.801348", "lon" : "21.683246"},
{ "name" : "Vác Eötvös út", "address" : "2600 Vác, Eötvös u. 1.", "lat" : "47.770368", "lon" : "19.139042"},
{ "name" : "Vác Tesco", "address" : "2600 Vác, Deres utca 2", "lat" : "47.778223", "lon" : "19.1283014"},
{ "name" : "Várpalota", "address" : "8100 Várpalota, Szent István utca 25", "lat" : "47.2014691", "lon" : "18.1441642"},
{ "name" : "Vásárosnamény", "address" : "4800 Vásárosnamény, Kossuth út 2.", "lat" : "48.1306603", "lon" : "22.316547"},
{ "name" : "Vecsés Fő út", "address" : "2220 Vecsés, Fő út 116.", "lat" : "47.415357", "lon" : "19.261001"},
{ "name" : "Vecsés Market Central", "address" : "2220 Vecsés, Fő út 246-248", "lat" : "47.4185012", "lon" : "19.2497303"},
{ "name" : "Veresegyház", "address" : "2112 Veresegyház, Fő u. 30.", "lat" : "47.6468858", "lon" : "19.2946506"},
{ "name" : "Veszprém Interspar", "address" : "8200 Veszprém, Dornyai Béla u. 4.", "lat" : "47.0860919", "lon" : "17.9254415"},
{ "name" : "Veszprém Kossuth Lajos utca", "address" : "8200 Veszprém, Kossuth L. u. 7", "lat" : "47.0931702", "lon" : "17.9104762"},
{ "name" : "Veszprém Szabadság tér", "address" : "8200 Veszprém, Szabadság tér 4.", "lat" : "47.0929953", "lon" : "17.9075119"},
{ "name" : "Zalaegerszeg Dísz tér", "address" : "8900 Zalaegerszeg, Dísz tér 3.", "lat" : "46.8421421", "lon" : "16.8469662"},
{ "name" : "Zalaegerszeg Kossuth L. utca", "address" : "8900 Zalaegerszeg, Kossuth Lajos utca 7", "lat" : "46.843025", "lon" : "16.8458983"},
{ "name" : "Zirc", "address" : "8420 Zirc, Deák Ferenc u. 2.", "lat" : "47.2637459", "lon" : "17.8713289"}
]
}
